[
  {
    "id": 1,
    "title": "Sushi Taksteeg",
    "position": {
      "lat": 52.36921615586098,
      "lng": 4.892004787248172
    },
    "address": "Taksteeg 3",
    "website": "http://www.Taksteeg.com.mk",
    "phone": "+31 20 422 8978",
    "workTime": "8AM - 03AM",
    "logoSrc": "img/mapImgs/logo/logo_ragusa.png",
    "category": 1
  },
  {
    "id": 2,
    "title": "Clarks Shoes",
    "position": {
      "lat": 52.370719099999995,
      "lng": 4.891561
    },
    "address": "Kalverstraat 80- 82",
    "website": "http://www.clarks.nl/",
    "phone": "+31 20 320 7019",
    "logoSrc": "img/mapImgs/logo/logo_clarks.png",
    "category": 7
  },
  {
    "id": 3,
    "title": "Molly Malone's Irish Pub",
    "position": {
      "lat": 52.37606420766234,
      "lng": 4.901264905929565
    },
    "address": "Oudezijds Kolk 9",
    "website": "http://www.mollymalone.com",
    "phone": "+31 20 624 1150",
    "logoSrc": "img/mapImgs/logo/logo_irish_pub_st_patrick.png",
    "category": 2
  },
  {
    "id": 4,
    "title": "Wok to Walk",
    "position": {
      "lat": 52.3719651,
      "lng": 4.8938496
    },
    "address": "Damstraat 44, 1012 JM Amsterdam",
    "website": "http://www.woktowalk.com.nl",
    "logoSrc": "img/mapImgs/logo/logo_pelister.png",
    "workTime": "7AM - 06AM",
    "category": 1
  },
  {
    "id": 5,
    "title": "Café-restaurant van Kerkwijk",
    "position": {
      "lat": 52.3723187,
      "lng": 4.8837833
    },
    "address": "Nes 41, 1012 KC Amsterdam",
    "phone": "020 620 3316",
    "logoSrc": "img/mapImgs/logo/logo_casa_cubana.png",
    "workTime": "11AM – 10PM",
    "category": 1
  },
  {
    "id": 6,
    "title": "Media Markt Amsterdam Centrum",
    "position": {
      "lat": 52.3769082,
      "lng": 4.903181
    },
    "address": "Oosterdokskade 67, 1011 DL Amsterdam",
    "website": "mediamarkt.nl",
    "phone": "020 521 3600",
    "logoSrc": "img/mapImgs/logo/logo_anhoch.png",
    "workTime": "9AM - 8:30PM",
    "category": 4
  },
  {
    "id": 7,
    "title": "AH Prins Hendrikkade",
    "position": {
      "lat": 52.3758699,
      "lng": 4.8917091
    },
    "address": "Prins Hendrikkade 20, 1012 TL Amsterdam",
    "website": "ah.nl",
    "phone": "020 623 2461",
    "logoSrc": "img/mapImgs/logo/logo_tinex.png",
    "workTime": "8AM - 10PM",
    "category": 5
  },
  {
    "id": 8,
    "title": "Albert Heijn",
    "position": {
      "lat": 52.3746123,
      "lng": 4.8991549
    },
    "address": "Nieuwmarkt 18, 1012 CR Amsterdam",
    "website": "ah.nl",
    "phone": "020 623 2461",
    "logoSrc": "img/mapImgs/logo/logo_tinex.png",
    "category": 5
  }
]
